,City,Lat,Lng,Max Temp,Humidity,Cloudiness,Wind Speed,Country,Date
0,London,51.5085,-0.1257,39.69,84,100,5.75,GB,1643059460
1,Paris,48.8534,2.3488,37.22,92,0,3.44,FR,1643059405
2,Barcelona,41.3888,2.159,49.53,84,20,5.75,ES,1643059354
3,Cork,51.898,-8.4706,46.63,83,75,6.91,IE,1643059326
4,Brussels,50.8504,4.3488,35.76,90,0,2.3,BE,1643059383
5,Cape Town,-33.9258,18.4232,70.12,84,75,5.01,ZA,1643059566
