,City,Lat,Lng,Max Temp,Humidity,Cloudiness,Wind Speed,Country,Date
0,London,51.5085,-0.1257,279.16,79,100,1.54,GB,1642979959
1,Paris,48.8534,2.3488,276.56,90,2,0.45,FR,1642980320
2,Barcelona,41.3888,2.159,282.89,85,20,0.45,ES,1642980335
3,Cork,51.898,-8.4706,281.83,89,75,5.14,IE,1642980380
4,Brussels,50.8504,4.3488,278.54,82,100,2.06,BE,1642980135
